[{"grp_identifiant": "002", "grp_nom": "Decr\u00e9-Bouffay", "grp_statut": 2, "grp_disponible": 364, "grp_exploitation": 468, "grp_complet": 10, "grp_horodatage": "2025-09-14T03:25:40+02:00", "idobj": "284", "location": {"lon": -1.5540046292504972, "lat": 47.216662613183885}, "adresse": "18 Rue du Moulin"},{"grp_identifiant": "001", "grp_nom": "Feydeau", "grp_statut": 2, "grp_disponible": 329, "grp_exploitation": 520, "grp_complet": 10, "grp_horodatage": "2025-09-14T03:25:40+02:00", "idobj": "4320", "location": {"lon": -1.552558781065703, "lat": 47.21407529472319}, "adresse": "Parvis Neptune"},{"grp_identifiant": "006", "grp_nom": "M\u00e9diath\u00e8que", "grp_statut": 2, "grp_disponible": 223, "grp_exploitation": 398, "grp_complet": 10, "grp_horodatage": "2025-09-14T03:25:40+02:00", "idobj": "134", "location": {"lon": -1.5623381737543782, "lat": 47.21087082120933}, "adresse": "Rue Neuve des Capucins"},{"grp_identifiant": "003", "grp_nom": "Tour Bretagne", "grp_statut": 2, "grp_disponible": 446, "grp_exploitation": 643, "grp_complet": 10, "grp_horodatage": "2025-09-14T03:25:40+02:00", "idobj": "299", "location": {"lon": -1.5582500168918192, "lat": 47.21784288795037}, "adresse": "4 Place de Bretagne"},{"grp_identifiant": "008", "grp_nom": "Talensac", "grp_statut": 2, "grp_disponible": 153, "grp_exploitation": 228, "grp_complet": 9, "grp_horodatage": "2025-09-14T03:25:40+02:00", "idobj": "1046", "location": {"lon": -1.5583572970724853, "lat": 47.22025597434886}, "adresse": "Rue Le N\u00f4tre"},{"grp_identifiant": "009", "grp_nom": "Cit\u00e9 des Congr\u00e8s", "grp_statut": 2, "grp_disponible": 408, "grp_exploitation": 439, "grp_complet": 10, "grp_horodatage": "2025-09-14T03:25:40+02:00", "idobj": "1044", "location": {"lon": -1.5439712738984481, "lat": 47.2129016651793}, "adresse": "Avenue Jean Claude Bonduelle"},{"grp_identifiant": "004", "grp_nom": "Graslin", "grp_statut": 2, "grp_disponible": 315, "grp_exploitation": 483, "grp_complet": 6, "grp_horodatage": "2025-09-14T03:25:40+02:00", "idobj": "288", "location": {"lon": -1.5625718137430404, "lat": 47.2143102053585}, "adresse": "Rue Scribe"},{"grp_identifiant": "011", "grp_nom": "Les machines", "grp_statut": 5, "grp_disponible": 397, "grp_exploitation": 397, "grp_complet": 2, "grp_horodatage": "2025-09-14T03:25:40+02:00", "idobj": "3951", "location": {"lon": -1.5627277898724061, "lat": 47.20590061614064}, "adresse": "Rue Arthur III"},{"grp_identifiant": "010", "grp_nom": "Cath\u00e9drale", "grp_statut": 2, "grp_disponible": 103, "grp_exploitation": 369, "grp_complet": 0, "grp_horodatage": "2025-09-14T03:25:40+02:00", "idobj": "3652", "location": {"lon": -1.5510561654614727, "lat": 47.22081334425927}, "adresse": "Rue Sully"},{"grp_identifiant": "005", "grp_nom": "Aristide Briand", "grp_statut": 5, "grp_disponible": 210, "grp_exploitation": 300, "grp_complet": 2, "grp_horodatage": "2025-09-14T03:25:40+02:00", "idobj": "1043", "location": {"lon": -1.5629364155817649, "lat": 47.217093597901226}, "adresse": "Place Aristide Briand"},{"grp_identifiant": "014", "grp_nom": "Gloriette 1", "grp_statut": 5, "grp_disponible": 89, "grp_exploitation": 143, "grp_complet": 25, "grp_horodatage": "2025-09-14T03:25:40+02:00", "idobj": "3549", "location": {"lon": -1.5584387265962067, "lat": 47.21117964947074}, "adresse": "All\u00e9e de l'Ile Gloriette"},{"grp_identifiant": "012", "grp_nom": "Descartes", "grp_statut": 5, "grp_disponible": 219, "grp_exploitation": 251, "grp_complet": 2, "grp_horodatage": "2025-09-14T03:25:40+02:00", "idobj": "5552", "location": {"lon": -1.564364526212151, "lat": 47.217188847954716}, "adresse": "Rue Descartes"},{"grp_identifiant": "007", "grp_nom": "Commerce", "grp_statut": 2, "grp_disponible": 315, "grp_exploitation": 406, "grp_complet": 7, "grp_horodatage": "2025-09-14T03:25:40+02:00", "idobj": "677", "location": {"lon": -1.557713217159592, "lat": 47.2131202800862}, "adresse": "Place du Commerce"},{"grp_identifiant": "017", "grp_nom": "CHU 1", "grp_statut": 5, "grp_disponible": 112, "grp_exploitation": 135, "grp_complet": 8, "grp_horodatage": "2025-09-14T03:25:40+02:00", "idobj": "3651", "location": {"lon": -1.5572502317729704, "lat": 47.20936196559804}, "adresse": "Quai de Tourville"},{"grp_identifiant": "029", "grp_nom": "Bellamy", "grp_statut": 5, "grp_disponible": 75, "grp_exploitation": 76, "grp_complet": 5, "grp_horodatage": "2025-09-14T03:25:40+02:00", "idobj": "3650", "location": {"lon": -1.5576936898606668, "lat": 47.22236040909734}, "adresse": "Impasse de la Courtine"},{"grp_identifiant": "015", "grp_nom": "H\u00f4tel Dieu", "grp_statut": 5, "grp_disponible": 63, "grp_exploitation": 100, "grp_complet": 5, "grp_horodatage": "2025-09-14T03:25:40+02:00", "idobj": "3550", "location": {"lon": -1.5519831099609056, "lat": 47.211057080450736}, "adresse": "Chauss\u00e9e de la Madeleine"},{"grp_identifiant": "037", "grp_nom": "Gloriette 2", "grp_statut": 5, "grp_disponible": 68, "grp_exploitation": 94, "grp_complet": 7, "grp_horodatage": "2025-09-14T03:25:40+02:00", "idobj": "4073", "location": {"lon": -1.5602843655802539, "lat": 47.210273681361414}, "adresse": "Rue Albert de Mun"},{"grp_identifiant": "034", "grp_nom": "Gare Sud 4", "grp_statut": 5, "grp_disponible": 141, "grp_exploitation": 330, "grp_complet": 2, "grp_horodatage": "2025-09-14T03:25:40+02:00", "idobj": "3989", "location": {"lon": -1.5379338929841764, "lat": 47.21510335976384}, "adresse": "24 Mail Pablo Picasso"},{"grp_identifiant": "016", "grp_nom": "Gare Sud 2 : Limit\u00e9 1h", "grp_statut": 5, "grp_disponible": 45, "grp_exploitation": 80, "grp_complet": 2, "grp_horodatage": "2025-09-14T03:25:40+02:00", "idobj": "3590", "location": {"lon": -1.5405805815658893, "lat": 47.21370471058834}, "adresse": "Quai Malakoff"},{"grp_identifiant": "044", "grp_nom": "Gare Sud 2", "grp_statut": 5, "grp_disponible": 425, "grp_exploitation": 457, "grp_complet": 2, "grp_horodatage": "2025-09-14T03:25:40+02:00", "idobj": "5533", "location": {"lon": -1.5363160630555566, "lat": 47.21698117112644}, "adresse": "Boulevard de Berlin"},{"grp_identifiant": "040", "grp_nom": "Fonderies", "grp_statut": 5, "grp_disponible": 117, "grp_exploitation": 130, "grp_complet": 10, "grp_horodatage": "2025-09-14T03:25:40+02:00", "idobj": "4319", "location": {"lon": -1.5443329511381525, "lat": 47.204970459088806}, "adresse": "Rue de la Porte Gell\u00e9e"},{"grp_identifiant": "021", "grp_nom": "Gare Nord", "grp_statut": 5, "grp_disponible": 357, "grp_exploitation": 553, "grp_complet": 2, "grp_horodatage": "2025-09-14T03:25:40+02:00", "idobj": "280", "location": {"lon": -1.5449843310082838, "lat": 47.21668903410084}, "adresse": "Cours John Kennedy"},{"grp_identifiant": "047", "grp_nom": "Les Nefs", "grp_statut": 5, "grp_disponible": 300, "grp_exploitation": 300, "grp_complet": 2, "grp_horodatage": "2025-09-14T03:25:40+02:00", "idobj": "5840", "location": {"lon": -1.5632873817591502, "lat": 47.204092541956626}, "adresse": "61 Boulevard de la Prairie au Duc"},{"grp_identifiant": "042", "grp_nom": "CHU 2", "grp_statut": 5, "grp_disponible": 54, "grp_exploitation": 61, "grp_complet": 0, "grp_horodatage": "2025-09-14T03:25:40+02:00", "idobj": "5022", "location": {"lon": -1.5529138839211876, "lat": 47.20889024774273}, "adresse": "Quai Moncousu"},{"grp_identifiant": "025", "grp_nom": "Gare Sud 1", "grp_statut": 5, "grp_disponible": 287, "grp_exploitation": 380, "grp_complet": 2, "grp_horodatage": "2025-09-14T03:25:40+02:00", "idobj": "1045", "location": {"lon": -1.5410368260441125, "lat": 47.21614962929036}, "adresse": "Rue de Lourmel"},{"grp_identifiant": "027", "grp_nom": "Gare Sud 3", "grp_statut": 5, "grp_disponible": 220, "grp_exploitation": 260, "grp_complet": 2, "grp_horodatage": "2025-09-14T03:25:40+02:00", "idobj": "3555", "location": {"lon": -1.5392563084462647, "lat": 47.21491533439512}, "adresse": "32 Rue du Pr\u00e9 Gauchet"},{"grp_identifiant": "035", "grp_nom": "Baco-LU 1", "grp_statut": 5, "grp_disponible": 52, "grp_exploitation": 92, "grp_complet": 3, "grp_horodatage": "2025-09-14T03:25:40+02:00", "idobj": "4142", "location": {"lon": -1.5489888254435977, "lat": 47.21433241531008}, "adresse": "All\u00e9e Baco"},{"grp_identifiant": "036", "grp_nom": "Baco-LU 2", "grp_statut": 5, "grp_disponible": 27, "grp_exploitation": 118, "grp_complet": 10, "grp_horodatage": "2025-09-14T03:25:40+02:00", "idobj": "3551", "location": {"lon": -1.5516042545448998, "lat": 47.21315097438518}, "adresse": "All\u00e9e Baco"}]